{
  "type" : "FeatureCollection",
  "features" : [{"type":"Feature","id":1902,"geometry":{"type":"Point","coordinates":[24.07000000000005,-13.289999999999964]},"properties":{"OBJECTID":1902,"name":"Cyrillus","Lat":-13.289999999999999,"Lon":24.07,"Dia":98.090000000000003,"Origin":"Saint Cyril; Egyptian theologian; chronologist (unkn-A,D, 444),"}},{"type":"Feature","id":1906,"geometry":{"type":"Point","coordinates":[25.490000000000066,-15.319999999999936]},"properties":{"OBJECTID":1906,"name":"Cyrillus F","Lat":-15.32,"Lon":25.489999999999998,"Dia":43.899999999999999,"Origin":"Saint Cyril; Egyptian theologian; chronologist (unkn-A,D, 444),"}},{"type":"Feature","id":3940,"geometry":{"type":"Point","coordinates":[21.710000000000036,-11.689999999999941]},"properties":{"OBJECTID":3940,"name":"Ibn-Rushd","Lat":-11.69,"Lon":21.710000000000001,"Dia":31.079999999999998,"Origin":"Abu al-Walîd Ibn Rushd (Averroës); Spanish-Arab philosopher/doctor (1126-1198),"}},{"type":"Feature","id":4139,"geometry":{"type":"Point","coordinates":[20.200000000000045,-10.619999999999948]},"properties":{"OBJECTID":4139,"name":"Kant","Lat":-10.619999999999999,"Lon":20.199999999999999,"Dia":30.850000000000001,"Origin":"Immanuel; German philosopher (1724-1804),"}},{"type":"Feature","id":4142,"geometry":{"type":"Point","coordinates":[18.700000000000045,-11.359999999999957]},"properties":{"OBJECTID":4142,"name":"Kant D","Lat":-11.359999999999999,"Lon":18.699999999999999,"Dia":52.399999999999999,"Origin":"Immanuel; German philosopher (1724-1804),"}},{"type":"Feature","id":4143,"geometry":{"type":"Point","coordinates":[19.560000000000059,-9.2099999999999795]},"properties":{"OBJECTID":4143,"name":"Kant G","Lat":-9.2100000000000009,"Lon":19.559999999999999,"Dia":33.539999999999999,"Origin":"Immanuel; German philosopher (1724-1804),"}},{"type":"Feature","id":5716,"geometry":{"type":"Point","coordinates":[21.740000000000066,-9.9999999999999432]},"properties":{"OBJECTID":5716,"name":"Mons Penck","Lat":-10,"Lon":21.739999999999998,"Dia":37.590000000000003,"Origin":"Albrecht; German geographer (1858-1945),"}},{"type":"Feature","id":5815,"geometry":{"type":"Point","coordinates":[29.760000000000048,-11.039999999999964]},"properties":{"OBJECTID":5815,"name":"Mädler","Lat":-11.039999999999999,"Lon":29.760000000000002,"Dia":27.579999999999998,"Origin":"Johann Heinrich von ~ (1794-1874); German astronomer; with Wilhelm Beer (q,v,); produced first true maps of Mars and Luna,"}},{"type":"Feature","id":8263,"geometry":{"type":"Point","coordinates":[18.950000000000045,-16.199999999999932]},"properties":{"OBJECTID":8263,"name":"Tacitus","Lat":-16.199999999999999,"Lon":18.949999999999999,"Dia":39.810000000000002,"Origin":"Cornelius; Roman historian (c, 55-120),"}},{"type":"Feature","id":8380,"geometry":{"type":"Point","coordinates":[26.28000000000003,-11.449999999999932]},"properties":{"OBJECTID":8380,"name":"Theophilus","Lat":-11.449999999999999,"Lon":26.280000000000001,"Dia":98.590000000000003,"Origin":"Greek astronomer (unkn-A,D, 412),"}},{"type":"Feature","id":9237,"geometry":{"type":"Point","coordinates":[18.900000000000034,-7.9699999999999704]},"properties":{"OBJECTID":9237,"name":"Zöllner","Lat":-7.9699999999999998,"Lon":18.899999999999999,"Dia":47.689999999999998,"Origin":"Johann Karl Friedrich; German astrophysicist; astronomer (1834-1882),"}},{"type":"Feature","id":9241,"geometry":{"type":"Point","coordinates":[21.990000000000066,-7.5799999999999272]},"properties":{"OBJECTID":9241,"name":"Zöllner F","Lat":-7.5800000000000001,"Lon":21.989999999999998,"Dia":27,"Origin":"Johann Karl Friedrich; German astrophysicist; astronomer (1834-1882),"}}]
}